<markers>
<marker title="Fimoculous.com" userID="rex" userFullName="Rex Sorgatz" htmlUrl="http://www.fimoculous.com" lat="0" lng="0">asdf</marker>
<marker title="Blogumentary" userID="chuck" userFullName="Chuck Olsen" htmlUrl="http://blogumentary.typepad.com" lat="44.997994" lng="-93.255194">asdf</marker>
<marker title="Girl Friday" userID="alexis" userFullName="Alexis McKinnis" htmlUrl="http://girlfriday.typepad.com" lat="45.01923" lng="-93.240108">asdf</marker>
<marker title="S4xton" userID="s4xton" userFullName="Aaron Landry" htmlUrl="http://www.s4xton.com" lat="44.938359" lng="-93.221357">asdf</marker>
<marker title="Jason DeRusha" userID="jderusha" userFullName="Jason DeRusha" htmlUrl="http://www.wcco.com/jasonblog/" lat="45.108636" lng="-93.43987">asdf</marker>
<marker title="I Will Dare" userID="jodi" userFullName="Jodi Chromey" htmlUrl="http://www.iwilldare.com" lat="44.7793" lng="-93.268251">asdf</marker>
<marker title="Lazy Lightning" userID="garcia" userFullName="Bill Roehl" htmlUrl="http://www.lazylightning.org" lat="44.746147" lng="-93.20776">asdf</marker>
<marker title="How Was The Show?" userID="david" userFullName="David de Young" htmlUrl="http://www.howwastheshow.com" lat="44.926378" lng="-93.28182">asdf</marker>
<marker title="East-Lake.net" userID="moe" userFullName="Brian Moen" htmlUrl="http://www.east-lake.net" lat="44.938359" lng="-93.221357">asdf</marker>
<marker title="Starfire.tv" userID="starfire" userFullName="Scott Lunt" htmlUrl="http://www.starfire.tv" lat="46.798733" lng="-92.094553">asdf</marker>
<marker title="More Cowbell" userID="solace" userFullName="Kyle Matteson" htmlUrl="http://www.morecowbell.net" lat="44.954448" lng="-93.379627">asdf</marker>
<marker title="MNbeer.com" userID="ryan" userFullName="Ryan Anderson" htmlUrl="http://www.mnbeer.com" lat="44.954448" lng="-93.379627">asdf</marker>
<marker title="Brand And Butter" userID="taulpaul" userFullName="Paul Saarinen" htmlUrl="http://www.brandbutter.com/vlog/" lat="44.983473" lng="-93.268251">asdf</marker>
<marker title="Complicated Fun" userID="pscholte" userFullName="Pete Scholtes" htmlUrl="http://www.complicatedfun.com" lat="45.0089" lng="-93.3395">asdf</marker>
<marker title="Campaign Trail" userID="rmf" userFullName="Robert Fitzgerald" htmlUrl="http://www.votefitzgerald.org/blog/" lat="46.289723" lng="-96.064338">asdf</marker>
<marker title="Ironic Teachings" userID="ironic" userFullName="Leab" htmlUrl="http://ironicteachings.blogspot.com" lat="45.0089" lng="-93.3395">asdf</marker>
<marker title="Ross Who Knew Too Much" userID="ross" userFullName="Ross Raihala" htmlUrl="http://blogs.twincities.com/ross/" lat="44.969963" lng="-93.083167">asdf</marker>
<marker title="A Nod To Nothing" userID="scooter" userFullName="Scott McVay" htmlUrl="http://nodtonothing.blogspot.com" lat="44.803593" lng="-93.196937">asdf</marker>
<marker title="Blind Carbon Copy" userID="xtine" userFullName="Christine Fankhanel" htmlUrl="http://blindcarboncopy.blogspot.com" lat="44.960891" lng="-93.26416">asdf</marker>
<marker title="Ideophany" userID="momolar" userFullName="Ned Kelly" htmlUrl="http://ideophany.blogspot.com" lat="44.916195" lng="-92.951413">asdf</marker>
<marker title="Myprontopup" userID="ptc33" userFullName="Brian Lebakken" htmlUrl="http://www.myprontopup.com" lat="44.982217" lng="-93.17458">asdf</marker>
<marker title="Minneapolitan Music" userID="myandrea" userFullName="Andrea Myers" htmlUrl="http://minneapolitanmusic.blogspot.com" lat="44.960891" lng="-93.26416">asdf</marker>
<marker title="Ontological Damnation" userID="ontodamn" userFullName="Jason Spidle" htmlUrl="http://www.panoptican.org/words/" lat="46.726041" lng="-92.45282">asdf</marker>
<marker title="MN Headhunter" userID="mnhedhnt" userFullName="Paul DeBettignies" htmlUrl="http://www.mnheadhunter.com" lat="44.983473" lng="-93.268251">asdf</marker>
<marker title="American Lung Association" userID="alamn" userFullName="Bob Moffitt" htmlUrl="http://www.alamn.org/media/blogger.html" lat="44.960798" lng="-93.121594">asdf</marker>
<marker title="Gin And Phonics" userID="sh-moon" userFullName="Matthew E. Wells" htmlUrl="http://www.ginandphonics.com" lat="45.01923" lng="-93.240108">asdf</marker>
<marker title="Life of Cyn" userID="Cyn" userFullName="Cyn Collins" htmlUrl="http://cyncollins.blogspot.com" lat="44.938359" lng="-93.221357">asdf</marker>
<marker title="Unprintable Version" userID="ktf" userFullName="Kevin Fenton" htmlUrl="http://unprintableversion.typepad.com" lat="44.937228" lng="-93.120852">asdf</marker>
<marker title="Alt Text" userID="aberro" userFullName="Ben Edwards" htmlUrl="http://www.alttext.com" lat="45.074129" lng="-93.199691">asdf</marker>
<marker title="Behind The Mortgage" userID="alex" userFullName="Alex J. Stenback" htmlUrl="http://www.behindthemortgage.com" lat="45.032446" lng="-93.472323">asdf</marker>
<marker title="E-Strategy" userID="dee" userFullName="David Erickson" htmlUrl="http://www.e-strategyblog.com" lat="44.967968" lng="-93.198067">asdf</marker>
<marker title="Hip Minnesota" userID="hipmn" userFullName="Max Sparber" htmlUrl="http://hipminnesota.blogspot.com" lat="44.960891" lng="-93.26416">asdf</marker>
<marker title="Cheek" userID="m.a.d." userFullName="Mark Desrosiers" htmlUrl="http://cheek.blogspot.com" lat="44.968734" lng="-93.299096">asdf</marker>
<marker title="Perfect Porridge" userID="pporridge" userFullName="Greg Swan" htmlUrl="http://www.perfectporridge.com" lat="44.969963" lng="-93.083167">asdf</marker>
<marker title="Moderate Left" userID="mrfeek" userFullName="Jeff Fecke" htmlUrl="http://www.moderateleft.com" lat="44.674865" lng="-93.257802">asdf</marker>
<marker title="Lloydletta's Nooz" userID="dletta" userFullName="Eva Young" htmlUrl="http://lloydletta.blogspot.com" lat="44.999601" lng="-93.300548">asdf</marker>
<marker title="Intermittent Thoughts" userID="kevint" userFullName="Kevin T. Houle" htmlUrl="http://www.houleweb.com" lat="44.968384" lng="-93.048817">asdf</marker>
<marker title="Eleventh Avenue South" userID="andymn" userFullName="Andy Birkey" htmlUrl="http://www.eleventh-avenue-south.com" lat="44.960891" lng="-93.26416">asdf</marker>
<marker title="Anti-Strib" userID="tracy" userFullName="Tracy Eberly" htmlUrl="http://anti-strib.blogspot.com" lat="44.926378" lng="-93.28182">asdf</marker>
<marker title="Cake For Breakfast" userID="sandburg" userFullName="Julie Sandburg" htmlUrl="http://blog.whiplash-girlchild.com" lat="44.905371" lng="-93.23606">asdf</marker>
<marker title="HongPong.com" userID="HongPong" userFullName="Dan Feidt" htmlUrl="http://www.hongpong.com" lat="44.934723" lng="-93.165148">asdf</marker>
<marker title="Voix de Michele" userID="voix" userFullName="Michele Campbell" htmlUrl="http://voixdemichele.blogspot.com" lat="44.938359" lng="-93.221357">asdf</marker>
<marker title="Lazy Lightning" userID="kim" userFullName="Kim Roehl" htmlUrl="http://www.lazylightning.org" lat="44.746147" lng="-93.20776">asdf</marker>
<marker title="Afterglide" userID="wtfmn" userFullName="Jeremy Antonson" htmlUrl="http://afterglide.blogspot.com" lat="44.803593" lng="-93.196937">asdf</marker>
<marker title="MNspeak.com" userID="matt" userFullName="Matt Bartel" htmlUrl="http://www.mnspeak.com" lat="44.967345" lng="-93.282841">asdf</marker>
<marker title="Driver 2165" userID="theblvd" userFullName="Ryan Pitman" htmlUrl="http://www.driver2165.com" lat="44.926378" lng="-93.28182">asdf</marker>
<marker title="Centrisity" userID="flash" userFullName="K R Schieb" htmlUrl="http://www.centrisity.com" lat="44.953179" lng="-93.15797">asdf</marker>
<marker title="Chasing Windmills" userID="cristina" userFullName="Cristina Cordova" htmlUrl="http://chasingmills.blogspot.com" lat="44.983473" lng="-93.268251">asdf</marker>
<marker title="Asymptosy" userID="doires" userFullName="Sarah Doire" htmlUrl="http://asymptosy.blogspot.com" lat="44.968734" lng="-93.299096">asdf</marker>
<marker title="MN Trash Whore" userID="mntw" userFullName="MN Trash Whore" htmlUrl="http://mntrashwhore.blogspot.com" lat="44.967345" lng="-93.282841">asdf</marker>
<marker title="Unlimited City" userID="stevemar" userFullName="Steve Marsh" htmlUrl="http://msp.blogs.com/unlimitedcity/" lat="44.946575" lng="-93.286173">asdf</marker>
<marker title="Chasing Windmills" userID="asinine" userFullName="juan antonio del rosario" htmlUrl="http://chasingmills.blogspot.com" lat="44.983473" lng="-93.268251">asdf</marker>
<marker title="Greet Machine" userID="snackeru" userFullName="Shane Nackerud" htmlUrl="http://blog.lib.umn.edu/snackeru/greet/" lat="44.954448" lng="-93.379627">asdf</marker>
<marker title="Minneapolis Metroblogging" userID="ericam" userFullName="Erica Mauter" htmlUrl="http://minneapolis.metblogs.com" lat="44.946575" lng="-93.286173">asdf</marker>
<marker title="Two Dolla" userID="twodolla" userFullName="Wendy Berry" htmlUrl="http://www.twodolla.org" lat="44.843039" lng="-93.16753">asdf</marker>
<marker title="Ciceron" userID="peterq" userFullName="Peter Quale" htmlUrl="http://www.ciceron.com" lat="45.01923" lng="-93.240108">asdf</marker>
<marker title="Capitol Brew-haha" userID="ehaugee" userFullName="Eric Haugee" htmlUrl="http://capitolbrewhaha.blogspot.com/" lat="44.953179" lng="-93.15797">asdf</marker>
<marker title="Minnesota Public Relations" userID="RyanMay" userFullName="Ryan May" htmlUrl="http://mnpr.blogspot.com" lat="0" lng="0">asdf</marker>
<marker title="Lloydletta's Nooz" userID="EYoung" userFullName="Eva Young" htmlUrl="http://lloydletta.blogspot.com" lat="44.999601" lng="-93.300548">asdf</marker>
</markers>

